{
  "students": [
    {
      "id": 1,
      "name": "John",
      "location": "india",
      "phone": "1234567890",
      "courses": [
        "Java",
        "Selenium"
      ]
    },
    {
      "id": 2,
      "name": "Kim",
      "location": "US",
      "phone": "98876543213",
      "courses": [
        "Python",
        "Appium"
      ]
    },
    {
      "id": 3,
      "name": "Smith",
      "location": "Canada",
      "phone": "165498765",
      "courses": [
        "C#",
        "RestAPI"
      ]
    },
    {
      "name": "Scott",
      "location": "Germany",
      "phone": "654321",
      "courses": [
        "C#",
        "C++"
      ],
      "id": 4
    },
    {
      "id": 5,
      "name": "Al-Amin",
      "location": "BD",
      "phone": "8801629674872",
      "courses": [
        "Python",
        "Appium"
      ]
    },
    {
      "name": "Tania",
      "location": "Akter",
      "phone": "12",
      "courses": [
        "Manual testing",
        "PostMan Learning"
      ],
      "id": 6
    },
    {
      "name": "Scott",
      "location": "France",
      "phone": "123456",
      "courses": [
        "C",
        "C++"
      ],
      "id": 7
    },
    {
      "name": "Scott",
      "location": "France",
      "phone": "123456",
      "courses": [
        "C",
        "C++"
      ],
      "id": 8
    },
    {
      "name": "Scott",
      "location": "France",
      "phone": "123456",
      "courses": [
        "C",
        "C++"
      ],
      "id": 9
    },
    {
      "name": "Scott",
      "location": "France",
      "phone": "123456",
      "courses": [
        "C",
        "C++"
      ],
      "id": 10
    },
    {
      "name": "Scott",
      "location": "France",
      "phone": "123456",
      "courses": [
        "C",
        "C++"
      ],
      "id": 11
    },
    {
      "name": "Scott",
      "location": "France",
      "phone": "123456",
      "courses": [
        "C",
        "C++"
      ],
      "id": 12
    },
    {
      "name": "Scott",
      "location": "France",
      "phone": "123456",
      "courses": [
        "C",
        "C++"
      ],
      "id": 13
    },
    {
      "name": "Scott",
      "location": "France",
      "phone": "123456",
      "courses": [
        "C",
        "C++"
      ],
      "id": 14
    },
    {
      "name": "Scott",
      "location": "France",
      "phone": "123456",
      "courses": [
        "C",
        "C++"
      ],
      "id": 15
    },
    {
      "name": "Scott",
      "location": "France",
      "phone": "123456",
      "courses": [
        "C",
        "C++"
      ],
      "id": 16
    },
    {
      "name": "Scott",
      "location": "France",
      "phone": "123456",
      "courses": [
        "C",
        "C++"
      ],
      "id": 17
    },
    {
      "name": "Scott",
      "location": "France",
      "phone": "123456",
      "courses": [
        "C",
        "C++"
      ],
      "id": 18
    },
    {
      "name": "Scott",
      "location": "France",
      "phone": "123456",
      "courses": [
        "C",
        "C++"
      ],
      "id": 19
    },
    {
      "name": "Sco3tt",
      "location": "France",
      "phone": "123456",
      "courses": [
        "C",
        "C++"
      ],
      "id": 20
    },
    {
      "name": "Sco3tt",
      "location": "France",
      "phone": "123456",
      "courses": [
        "C",
        "C++"
      ],
      "id": 21
    },
    {
      "name": "Sco3tt",
      "location": "France",
      "phone": "123456",
      "courses": [
        "C",
        "C++"
      ],
      "id": 22
    },
    {
      "name": "Sco3tt",
      "location": "France",
      "phone": "123456",
      "courses": [
        "C",
        "C++"
      ],
      "id": 23
    },
    {
      "name": "Tania Akter",
      "location": "Khikhet",
      "phone": "000111000",
      "courses": [
        "Poetry",
        "Prose",
        "Manual Testing"
      ],
      "id": 24
    },
    {
      "name": "Scott",
      "location": "France",
      "phone": "12345dd6",
      "courses": [
        "C",
        "C++"
      ],
      "id": 25
    },
    {
      "name": "Scott",
      "location": "France",
      "phone": "12345dd6",
      "courses": [
        "C",
        "C++"
      ],
      "id": 26
    },
    {
      "name": "Al-Amin",
      "location": "France",
      "phone": "123456",
      "courses": [
        "C",
        "C++"
      ],
      "id": 27
    },
    {
      "name": "Al-Amin",
      "location": "France",
      "phone": "123456",
      "courses": [
        "C",
        "C++"
      ],
      "id": 28
    },
    {
      "courses": [
        "C",
        "C++"
      ],
      "phone": "123456",
      "name": "Scott",
      "location": "France",
      "id": 29
    },
    {
      "courses": [
        "C",
        "C++"
      ],
      "phone": "123456",
      "name": "Scott",
      "location": "France",
      "id": 30
    },
    {
      "courses": [
        "C",
        "C++"
      ],
      "phone": "123456",
      "name": "Scott",
      "location": "France",
      "id": 31
    },
    {
      "courses": [
        "C",
        "C++"
      ],
      "phone": "123456",
      "name": "Scott",
      "location": "France",
      "id": 32
    },
    {
      "courses": [
        "C",
        "C++"
      ],
      "phone": "123456",
      "name": "Scott",
      "location": "France",
      "id": 33
    }
  ]
}